[{"Stop_id":"TECHNO_1","Stop_lat":"48.360404","Stop_lon":"-4.569706","Stop_name":"Technopole"},{"Stop_id":"ECOLES_1","Stop_lat":"48.360911","Stop_lon":"-4.567525","Stop_name":"Ecoles"},{"Stop_id":"DE_RO_1","Stop_lat":"48.361071","Stop_lon":"-4.56481","Stop_name":"De Rochon"},{"Stop_id":"PICCAR_1","Stop_lat":"48.362156","Stop_lon":"-4.564005","Stop_name":"Piccard"},{"Stop_id":"STANNE_1","Stop_lat":"48.361812","Stop_lon":"-4.554317","Stop_name":"Plage Ste Anne"},{"Stop_id":"COSQUE_1","Stop_lat":"48.366336","Stop_lon":"-4.547491","Stop_name":"Cosquer"},{"Stop_id":"MIMOSA_1","Stop_lat":"48.368218","Stop_lon":"-4.548959","Stop_name":"Mimosas"},{"Stop_id":"PORTZI_1","Stop_lat":"48.370238","Stop_lon":"-4.552232","Stop_name":"Portzic"},{"Stop_id":"CHDEAU_1","Stop_lat":"48.374943","Stop_lon":"-4.556795","Stop_name":"Chateau d'eau"},{"Stop_id":"P_PLZ_1","Stop_lat":"48.376281","Stop_lon":"-4.553219","Stop_name":"Porte Plouzane"},{"Stop_id":"MONTB_2","Stop_lat":"48.378473","Stop_lon":"-4.544133","Stop_name":"Fort Montbarey"},{"Stop_id":"PFLEUR_2","Stop_lat":"48.379702","Stop_lon":"-4.538551","Stop_name":"Panier Fleuri"},{"Stop_id":"STPIER_2","Stop_lat":"48.379624","Stop_lon":"-4.53556","Stop_name":"St Pierre"},{"Stop_id":"KERZUD_2","Stop_lat":"48.380796","Stop_lon":"-4.531555","Stop_name":"Kerzudal"},{"Stop_id":"BOURAY_2","Stop_lat":"48.381571","Stop_lon":"-4.527565","Stop_name":"Bourayne"},{"Stop_id":"CAST_D_2","Stop_lat":"48.382652","Stop_lon":"-4.521719","Stop_name":"Castel-an-Daol"},{"Stop_id":"COSMAO_2","Stop_lat":"48.382838","Stop_lon":"-4.516812","Stop_name":"Cosmao Pretot"},{"Stop_id":"KERBON_2","Stop_lat":"48.382448","Stop_lon":"-4.515447","Stop_name":"Kerbonne"},{"Stop_id":"P_BERT_2","Stop_lat":"48.381327","Stop_lon":"-4.513321","Stop_name":"Paul Bert"},{"Stop_id":"KERANG_2","Stop_lat":"48.381255","Stop_lon":"-4.509898","Stop_name":"Kerangoff"},{"Stop_id":"F_ESPE_2","Stop_lat":"48.382599","Stop_lon":"-4.508679","Stop_name":"Fr. d' Esperey"},{"Stop_id":"LOTTI_1","Stop_lat":"48.382616","Stop_lon":"-4.505429","Stop_name":"Loti"},{"Stop_id":"JAVOUH_2","Stop_lat":"48.383304","Stop_lon":"-4.503541","Stop_name":"Javouhey"},{"Stop_id":"MAISSI_2","Stop_lat":"48.384032","Stop_lon":"-4.503122","Stop_name":"Maissin"},{"Stop_id":"RECOUV_2","Stop_lat":"48.384116","Stop_lon":"-4.499339","Stop_name":"Recouvrance"},{"Stop_id":"FLIBRE_2","Stop_lat":"48.384218","Stop_lon":"-4.493229","Stop_name":"Francais Libres"},{"Stop_id":"MUSEEM_2","Stop_lat":"48.38292","Stop_lon":"-4.492422","Stop_name":"Musee Marine"},{"Stop_id":"RAMPES_2","Stop_lat":"48.383132","Stop_lon":"-4.48737","Stop_name":"Rampes"},{"Stop_id":"KENNED_2","Stop_lat":"48.386876","Stop_lon":"-4.482101","Stop_name":"Kennedy Gare"},{"Stop_id":"GARE_2","Stop_lat":"48.388117","Stop_lon":"-4.480623","Stop_name":"Gare"},{"Stop_id":"QUARTZ_2","Stop_lat":"48.389794","Stop_lon":"-4.485165","Stop_name":"Liberte Quartz"},{"Stop_id":"F","Stop_lat":"48.391138","Stop_lon":"-4.486262","Stop_name":"Liberte Place"},{"Stop_id":"HDEVIL-2","Stop_lat":"48.392287","Stop_lon":"-4.484664","Stop_name":"Hotel de Ville"},{"Stop_id":"MALAKO_2","Stop_lat":"48.395919","Stop_lon":"-4.484122","Stop_name":"Malakoff"},{"Stop_id":"ALB1ER_2","Stop_lat":"48.397163","Stop_lon":"-4.487252","Stop_name":"Albert 1er"},{"Stop_id":"PASTEU_2","Stop_lat":"48.400703","Stop_lon":"-4.488935","Stop_name":"Pasteur"},{"Stop_id":"PEGUY_2","Stop_lat":"48.401804","Stop_lon":"-4.48893","Stop_name":"Peguy"},{"Stop_id":"PATINO_2","Stop_lat":"48.403603","Stop_lon":"-4.508302","Stop_name":"Patinoire"},{"Stop_id":"TARENT_2","Stop_lat":"48.405484","Stop_lon":"-4.510718","Stop_name":"Tarente"},{"Stop_id":"DAUPHI_2","Stop_lat":"48.405243","Stop_lon":"-4.515633","Stop_name":"Dauphine"},{"Stop_id":"GASCO_2","Stop_lat":"48.406611","Stop_lon":"-4.517399","Stop_name":"Gascogne"},{"Stop_id":"PROVEN_2","Stop_lat":"48.407501","Stop_lon":"-4.514208","Stop_name":"Provence"},{"Stop_id":"PROVEN_1","Stop_lat":"48.40764","Stop_lon":"-4.514769","Stop_name":"Provence"},{"Stop_id":"E_COM_2","Stop_lat":"48.406933","Stop_lon":"-4.521643","Stop_name":"Ecole Commerce"},{"Stop_id":"CHR_R1","Stop_lat":"48.401572","Stop_lon":"-4.526292","Stop_name":"Hopital Cavale 1"},{"Stop_id":"CHR_A2","Stop_lat":"48.400719","Stop_lon":"-4.529622","Stop_name":"Hopital Cavale 2"}]