[{"Stop_id":"PLZ_1","Stop_lat":"48.381954","Stop_lon":"-4.622296","Stop_name":"Plouzane Bourg"},{"Stop_id":"MOUETT_2","Stop_lat":"48.38162","Stop_lon":"-4.617875","Stop_name":"Mouettes"},{"Stop_id":"PENHU_2","Stop_lat":"48.381926","Stop_lon":"-4.612089","Stop_name":"Penhuel"},{"Stop_id":"MALMAN_2","Stop_lat":"48.382507","Stop_lon":"-4.604376","Stop_name":"Malmanche"},{"Stop_id":"PLZMAI_2","Stop_lat":"48.380414","Stop_lon":"-4.601604","Stop_name":"Plouzane Mairie"},{"Stop_id":"MOQUET_2","Stop_lat":"48.380141","Stop_lon":"-4.599658","Stop_name":"Moquet"},{"Stop_id":"KERAL_2","Stop_lat":"48.37915","Stop_lon":"-4.589365","Stop_name":"Kerallan"},{"Stop_id":"SYVOM_2","Stop_lat":"48.377357","Stop_lon":"-4.58639","Stop_name":"Sycomores"},{"Stop_id":"BLEUETS2","Stop_lat":"48.374231","Stop_lon":"-4.584296","Stop_name":"Bleuets"},{"Stop_id":"MYOSO_2","Stop_lat":"48.373003","Stop_lon":"-4.589525","Stop_name":"Myosotis"},{"Stop_id":"PLCOM_2","Stop_lat":"48.371463","Stop_lon":"-4.59054","Stop_name":"Commerce"},{"Stop_id":"ENCLOS_2","Stop_lat":"48.369169","Stop_lon":"-4.58842","Stop_name":"Enclos"},{"Stop_id":"TRINIT_2","Stop_lat":"48.370707","Stop_lon":"-4.585739","Stop_name":"La Trinite"},{"Stop_id":"KERAMA_2","Stop_lat":"48.372487","Stop_lon":"-4.58019","Stop_name":"Keramaze"},{"Stop_id":"BRAZ","Stop_lat":"48.373757","Stop_lon":"-4.575929","Stop_name":"Lannevel-Braz"},{"Stop_id":"COATU_2","Stop_lat":"48.374045","Stop_lon":"-4.5675","Stop_name":"Coatuelen"},{"Stop_id":"CHDEAU_1","Stop_lat":"48.374943","Stop_lon":"-4.556795","Stop_name":"Chateau d'eau"},{"Stop_id":"P_PLZ_1","Stop_lat":"48.376281","Stop_lon":"-4.553219","Stop_name":"Porte Plouzane"},{"Stop_id":"MONTB_2","Stop_lat":"48.378473","Stop_lon":"-4.544133","Stop_name":"Fort Montbarey"},{"Stop_id":"PFLEUR_2","Stop_lat":"48.379702","Stop_lon":"-4.538551","Stop_name":"Panier Fleuri"},{"Stop_id":"STPIER_2","Stop_lat":"48.379624","Stop_lon":"-4.53556","Stop_name":"St Pierre"},{"Stop_id":"QUILBI_1","Stop_lat":"48.379123","Stop_lon":"-4.534099","Stop_name":"Quilbignon"},{"Stop_id":"KERAN_2","Stop_lat":"48.379129","Stop_lon":"-4.53013","Stop_name":"Keranquere"},{"Stop_id":"MESDOU_4","Stop_lat":"48.378757","Stop_lon":"-4.526599","Stop_name":"Mesdoun"},{"Stop_id":"AMUNDS_2","Stop_lat":"48.377949","Stop_lon":"-4.523282","Stop_name":"Amundsen"},{"Stop_id":"THOUAR_2","Stop_lat":"48.379088","Stop_lon":"-4.520303","Stop_name":"Dupetit Thouars"},{"Stop_id":"KERB_E_2","Stop_lat":"48.380488","Stop_lon":"-4.515785","Stop_name":"Kerbonne Eglise"},{"Stop_id":"KERBON_1","Stop_lat":"48.382452","Stop_lon":"-4.515379","Stop_name":"Kerbonne"},{"Stop_id":"4MOULI_2","Stop_lat":"48.382633","Stop_lon":"-4.512585","Stop_name":"4 Moulins"},{"Stop_id":"MOIGNE_2","Stop_lat":"48.383378","Stop_lon":"-4.50832","Stop_name":"Le Moigne"},{"Stop_id":"PLEDAN_2","Stop_lat":"48.383999","Stop_lon":"-4.50431","Stop_name":"Prat-Ledan"},{"Stop_id":"MAISSI_2","Stop_lat":"48.384032","Stop_lon":"-4.503122","Stop_name":"Maissin"},{"Stop_id":"RECOUV_2","Stop_lat":"48.384116","Stop_lon":"-4.499339","Stop_name":"Recouvrance"},{"Stop_id":"FLIBRE_2","Stop_lat":"48.384218","Stop_lon":"-4.493229","Stop_name":"Francais Libres"},{"Stop_id":"MOULIN_2","Stop_lat":"48.386262","Stop_lon":"-4.493008","Stop_name":"Jean Moulin"},{"Stop_id":"DUQUES_2","Stop_lat":"48.388445","Stop_lon":"-4.491926","Stop_name":"Duquesne"},{"Stop_id":"F","Stop_lat":"48.391138","Stop_lon":"-4.486262","Stop_name":"Liberte Place"},{"Stop_id":"HDEVIL-2","Stop_lat":"48.392287","Stop_lon":"-4.484664","Stop_name":"Hotel de Ville"},{"Stop_id":"MALAKO_2","Stop_lat":"48.395919","Stop_lon":"-4.484122","Stop_name":"Malakoff"},{"Stop_id":"ALB1ER_2","Stop_lat":"48.397163","Stop_lon":"-4.487252","Stop_name":"Albert 1er"},{"Stop_id":"DONNAR_2","Stop_lat":"48.399582","Stop_lon":"-4.486159","Stop_name":"Donnart"},{"Stop_id":"MOULT_2","Stop_lat":"48.401885","Stop_lon":"-4.482855","Stop_name":"Le Moult"},{"Stop_id":"MONTAI_2","Stop_lat":"48.403253","Stop_lon":"-4.480892","Stop_name":"Montaigne"},{"Stop_id":"HOCHE_2","Stop_lat":"48.404025","Stop_lon":"-4.475355","Stop_name":"Hoche"},{"Stop_id":"BRAILL_2","Stop_lat":"48.403523","Stop_lon":"-4.471712","Stop_name":"Braille"},{"Stop_id":"ST_AL_2","Stop_lat":"48.402521","Stop_lon":"-4.467502","Stop_name":"Strasbourg loupp"},{"Stop_id":"ST_RQ_2","Stop_lat":"48.402436","Stop_lon":"-4.465851","Stop_name":"Strasbourg"},{"Stop_id":"STFBLE2","Stop_lat":"48.402304","Stop_lon":"-4.463611","Stop_name":"Stade F.Le Ble"},{"Stop_id":"LEBOT_2","Stop_lat":"48.401982","Stop_lon":"-4.459652","Stop_name":"Le Bot Haut"},{"Stop_id":"FLOCH_2","Stop_lat":"48.401205","Stop_lon":"-4.455282","Stop_name":"Floch"},{"Stop_id":"RTE_QP_2","Stop_lat":"48.401416","Stop_lon":"-4.449279","Stop_name":"Rte de Quimper"},{"Stop_id":"JARDIN_2","Stop_lat":"48.400564","Stop_lon":"-4.445428","Stop_name":"Jardin Botanique"},{"Stop_id":"PALAR_4","Stop_lat":"48.397203","Stop_lon":"-4.436251","Stop_name":"Palaren"},{"Stop_id":"RODY_2","Stop_lat":"48.398025","Stop_lon":"-4.432008","Stop_name":"Rody"},{"Stop_id":"TY_ARM_2","Stop_lat":"48.383667","Stop_lon":"-4.391741","Stop_name":"Ty Armor"},{"Stop_id":"RKERE_1","Stop_lat":"48.382481","Stop_lon":"-4.377893","Stop_name":"Roc'h-Kerezen"},{"Stop_id":"DEREDE_2","Stop_lat":"48.378526","Stop_lon":"-4.379376","Stop_name":"Deredec"},{"Stop_id":"FILLIG_2","Stop_lat":"48.375595","Stop_lon":"-4.379974","Stop_name":"Filliger"},{"Stop_id":"SALAUN_2","Stop_lat":"48.372469","Stop_lon":"-4.379884","Stop_name":"Salaun"},{"Stop_id":"BODONN_2","Stop_lat":"48.370505","Stop_lon":"-4.379035","Stop_name":"Bodonn"},{"Stop_id":"TOULL_2","Stop_lat":"48.367817","Stop_lon":"-4.372541","Stop_name":"Toull-ar-Ranig"},{"Stop_id":"KERBR_2","Stop_lat":"48.367564","Stop_lon":"-4.366835","Stop_name":"Kerbrat"},{"Stop_id":"FONT_B_2","Stop_lat":"48.370933","Stop_lon":"-4.363624","Stop_name":"Fontaine Blanche"},{"Stop_id":"MEHEUT_2","Stop_lat":"48.372432","Stop_lon":"-4.366918","Stop_name":"Meheut"},{"Stop_id":"CHFOIR_2","Stop_lat":"48.374026","Stop_lon":"-4.368409","Stop_name":"Champ de Foire"},{"Stop_id":"KERDAN_2","Stop_lat":"48.375934","Stop_lon":"-4.366907","Stop_name":"Kerdangui"},{"Stop_id":"GUIVAR_2","Stop_lat":"48.377701","Stop_lon":"-4.364248","Stop_name":"Guivarch"},{"Stop_id":"CROASB_2","Stop_lat":"48.38139","Stop_lon":"-4.358084","Stop_name":"Croas-ar-Bis"},{"Stop_id":"KVENAL_2","Stop_lat":"48.381936","Stop_lon":"-4.349905","Stop_name":"Kervenal"},{"Stop_id":"GILARD_2","Stop_lat":"48.384382","Stop_lon":"-4.349893","Stop_name":"Colas"},{"Stop_id":"KROAZKER","Stop_lat":"48.387137","Stop_lon":"-4.350964","Stop_name":"Kroaz Kervern"},{"Stop_id":"MENEZ_1","Stop_lat":"48.384139","Stop_lon":"-4.354644","Stop_name":"Ty ar Menez"}]